[{"id":264371,"name":"Athens","country":"GR","coord":{"lon":23.716221,"lat":37.97945}},{"id":98182,"name":"Baghdad","country":"IQ","coord":{"lon":44.400879,"lat":33.34058}},{"id":1609350,"name":"Bangkok","country":"TH","coord":{"lon":100.51667,"lat":13.75}},{"id":1816670,"name":"Beijing","country":"CN","coord":{"lon":116.397232,"lat":39.907501}},{"id":2950158,"name":"Berlin","country":"DE","coord":{"lon":10.45,"lat":54.033329}},{"id":3032579,"name":"Biot","country":"FR","coord":{"lon":7.09645,"lat":43.627232}},{"id":6455058,"name":"Bordeaux","country":"FR","coord":{"lon":-0.56667,"lat":44.833328}},{"id":3469058,"name":"Brasilia","country":"BR","coord":{"lon":-47.929722,"lat":-15.77972}},{"id":3435910,"name":"Buenos Aires","country":"AR","coord":{"lon":-58.377232,"lat":-34.613152}},{"id":360630,"name":"Cairo","country":"EG","coord":{"lon":31.24967,"lat":30.06263}},{"id":2172517,"name":"Canberra","country":"AU","coord":{"lon":149.128067,"lat":-35.283459}},{"id":3028808,"name":"Cannes","country":"FR","coord":{"lon":7.01275,"lat":43.55135}},{"id":6547294,"name":"Casablanca","country":"MA","coord":{"lon":-7.55785,"lat":33.588402}},{"id":6440000,"name":"Clermont-Ferrand","country":"FR","coord":{"lon":3.08333,"lat":45.783329}},{"id":1185241,"name":"Dhaka","country":"BD","coord":{"lon":90.40744,"lat":23.7104}},{"id":3018835,"name":"Fayence","country":"FR","coord":{"lon":6.69531,"lat":43.625702}},{"id":6454920,"name":"Grasse","country":"FR","coord":{"lon":6.91667,"lat":43.666672}},{"id":1176615,"name":"Islamabad","country":"PK","coord":{"lon":73.043289,"lat":33.721481}},{"id":745044,"name":"Istanbul","country":"TR","coord":{"lon":28.949659,"lat":41.01384}},{"id":1642911,"name":"Jakarta","country":"ID","coord":{"lon":106.845131,"lat":-6.21462}},{"id":281184,"name":"Jerusalem","country":"IL","coord":{"lon":35.216331,"lat":31.769039}},{"id":993800,"name":"Johannesburg","country":"ZA","coord":{"lon":28.043631,"lat":-26.202271}},{"id":294615,"name":"Kabul","country":"IL","coord":{"lon":35.213058,"lat":32.866669}},{"id":703448,"name":"Kiev","country":"UA","coord":{"lon":30.516666,"lat":50.433334}},{"id":1733046,"name":"Kuala Lumpur","country":"MY","coord":{"lon":101.686531,"lat":3.14309}},{"id":6454414,"name":"Lille","country":"FR","coord":{"lon":3.06667,"lat":50.633331}},{"id":6458923,"name":"Lisbon","country":"PT","coord":{"lon":-9.14843,"lat":38.726349}},{"id":2643743,"name":"London","country":"GB","coord":{"lon":-0.12574,"lat":51.50853}},{"id":5368361,"name":"Los Angeles","country":"US","coord":{"lon":-118.243683,"lat":34.052231}},{"id":6454573,"name":"Lyon","country":"FR","coord":{"lon":4.83107,"lat":45.7686}},{"id":6359304,"name":"Madrid","country":"ES","coord":{"lon":-3.68275,"lat":40.489349}},{"id":1701668,"name":"Manila","country":"PH","coord":{"lon":120.982201,"lat":14.6042}},{"id":6447142,"name":"Marseille","country":"FR","coord":{"lon":5.4,"lat":43.299999}},{"id":3996063,"name":"Mexico","country":"MX","coord":{"lon":-102,"lat":23}},{"id":6454034,"name":"Montpellier","country":"FR","coord":{"lon":3.8771,"lat":43.611301}},{"id":524901,"name":"Moscow","country":"RU","coord":{"lon":37.615555,"lat":55.75222}},{"id":6434483,"name":"Nantes","country":"FR","coord":{"lon":-1.55,"lat":47.216671}},{"id":1261481,"name":"New Delhi","country":"IN","coord":{"lon":77.23114,"lat":28.61282}},{"id":5128638,"name":"New York","country":"US","coord":{"lon":-75.499901,"lat":43.000351}},{"id":2990440,"name":"Nice","country":"FR","coord":{"lon":7.26608,"lat":43.703129}},{"id":2989317,"name":"Orleans","country":"FR","coord":{"lon":1.90389,"lat":47.902889}},{"id":2988507,"name":"Paris","country":"FR","coord":{"lon":2.3488,"lat":48.853409}},{"id":1821306,"name":"Phnom Penh","country":"KH","coord":{"lon":104.916008,"lat":11.56245}},{"id":6445329,"name":"Poitiers","country":"FR","coord":{"lon":0.33333,"lat":46.583328}},{"id":1871859,"name":"Pyongyang","country":"KP","coord":{"lon":125.754318,"lat":39.033852}},{"id":2983990,"name":"Rennes","country":"FR","coord":{"lon":-1.67429,"lat":48.11198}},{"id":1880251,"name":"Republic of Singapore","country":"SG","coord":{"lon":103.800003,"lat":1.36667}},{"id":3451190,"name":"Rio de Janeiro","country":"BR","coord":{"lon":-43.2075,"lat":-22.902781}},{"id":108410,"name":"Riyadh","country":"SA","coord":{"lon":46.721851,"lat":24.687731}},{"id":3169070,"name":"Roma","country":"IT","coord":{"lon":12.4839,"lat":41.894741}},{"id":5391959,"name":"San Francisco","country":"US","coord":{"lon":-122.419418,"lat":37.774929}},{"id":3871336,"name":"Santiago","country":"CL","coord":{"lon":-70.64827,"lat":-33.45694}},{"id":1835848,"name":"Seoul","country":"KR","coord":{"lon":126.977829,"lat":37.56826}},{"id":6640252,"name":"Sophia Antipolis","country":"FR","coord":{"lon":7.04721,"lat":43.622349}},{"id":1668341,"name":"Taipei","country":"TW","coord":{"lon":121.531853,"lat":25.04776}},{"id":1512569,"name":"Tashkent","country":"UZ","coord":{"lon":69.21627,"lat":41.264648}},{"id":112931,"name":"Tehran","country":"IR","coord":{"lon":51.421509,"lat":35.694389}},{"id":1850147,"name":"Tokyo","country":"JP","coord":{"lon":139.691711,"lat":35.689499}},{"id":6453974,"name":"Toulouse","country":"FR","coord":{"lon":1.44367,"lat":43.604259}},{"id":2464470,"name":"Tunis","country":"TN","coord":{"lon":10.16579,"lat":36.81897}},{"id":2971117,"name":"Valbonne","country":"FR","coord":{"lon":6.99911,"lat":43.632919}},{"id":6173331,"name":"Vancouver","country":"CA","coord":{"lon":-123.119339,"lat":49.24966}},{"id":1651944,"name":"Vientiane","country":"LA","coord":{"lon":102.599998,"lat":17.966669}},{"id":4880731,"name":"Washington","country":"US","coord":{"lon":-91.69294,"lat":41.299179}},{"id":2761367,"name":"Wien","country":"AT","coord":{"lon":16.371691,"lat":48.208199}},{"id":7638021,"name":"Yangong","country":"CN","coord":{"lon":118.450188,"lat":30.65062}}]